LAT,LON,NAME,TIME
13.010236,80.215652,Guindy,07:00:00
13.109045,80.204941,Villivakkam,08:00:00
12.975444,80.220642,Velachery,09:30:00
13.047261,80.094528,Poonamallee,10:30:00
12.934797,80.210762,Pallikaranai,12:00:00
12.888370,80.227057,Sholinganallur,13:00:00